[
    {
       "id": "kauai-beer-company",
       "name": "Kauai Beer Company",
       "brewery_type": "brewpub",
       "street": "4265 Rice St",
       "city": "Lihue",
       "state": "Hawaii",
       "postal_code": 96766,
       "website_url": "http://www.kauaibeer.com",
       "phone": 8082452337,
       "created_at": "33:16.9",
       "updated_at": "29:44.8",
       "country": "United States",
       "longitude": -159.3647876,
       "latitude": 21.9722854
    },
    {
       "id": "stewbum",
       "name": "Stewbum",
       "brewery_type": "brewpub",
       "street": "96 N King St",
       "city": "Honolulu",
       "state": "Hawaii",
       "postal_code": "96817-5109",
       "website_url": "http://www.stewbumandstonewall.com",
       "phone": 8086646684,
       "created_at": "33:17.0",
       "updated_at": "29:49.4",
       "country": "United States",
       "longitude": -157.8634762,
       "latitude": 21.31171513
    },
    {
       "id": "honolulu-beerworks",
       "name": "Honolulu BeerWorks",
       "brewery_type": "brewpub",
       "street": "328 Cooke St",
       "city": "Honolulu",
       "state": "Hawaii",
       "postal_code": "96813-5531",
       "website_url": "http://www.honolulubeerworks.com",
       "phone": 8085892337,
       "created_at": "33:16.9",
       "updated_at": "29:43.5",
       "country": "United States",
       "longitude": -157.860634,
       "latitude": 21.29690603
    },
    {
       "id": "aloha-beer-co",
       "name": "Aloha Beer Co",
       "brewery_type": "brewpub",
       "street": "700 Queen St",
       "city": "Honolulu",
       "state": "Hawaii",
       "postal_code": "96813-5110",
       "website_url": "http://www.alohabeer.com",
       "phone": 8085455959,
       "created_at": "33:16.7",
       "updated_at": "29:39.9",
       "country": "United States",
       "longitude": -157.857248,
       "latitude": 21.301249
    },
    {
       "id": "waikiki-brewing-comp‚àèany-kakaako",
       "name": "Waikiki Brewing Company, Kaka'ako",
       "brewery_type": "micro",
       "street": "831 Queen St",
       "city": "Honolulu",
       "state": "Hawaii",
       "postal_code": "96813-5203",
       "created_at": "33:17.0",
       "updated_at": "29:51.1",
       "country": "United States",
       "longitude": -157.8559271,
       "latitude": 21.29964432
    },
    {
       "id": "home-of-the-brave-brewing-company",
       "name": "Home of the Brave Brewing Company",
       "brewery_type": "brewpub",
       "street": "909 Waimanu St",
       "city": "Honolulu",
       "state": "Hawaii",
       "postal_code": "96814-3309",
       "website_url": "http://www.hotbbc.com",
       "phone": 8083968112,
       "created_at": "33:16.8",
       "updated_at": "29:42.9",
       "country": "United States",
       "longitude": -157.8535966,
       "latitude": 21.29875689
    },
    {
       "id": "waikiki-brewing-company",
       "name": "Waikiki Brewing Company",
       "brewery_type": "brewpub",
       "street": "1945 Kalakaua Ave",
       "city": "Honolulu",
       "state": "Hawaii",
       "postal_code": "96815-1851",
       "website_url": "http://www.waikikibrewing.com",
       "created_at": "33:17.0",
       "updated_at": "29:50.5",
       "country": "United States",
       "longitude": -157.8334964,
       "latitude": 21.2858755
    },
    {
       "id": "beer-lab-hi",
       "name": "Beer Lab HI",
       "brewery_type": "micro",
       "street": "1010 University Ave Ste B1",
       "city": "Honolulu",
       "state": "Hawaii",
       "postal_code": "96826-1537",
       "website_url": "http://www.beerlabhi.com",
       "phone": 8088880913,
       "created_at": "33:16.7",
       "updated_at": "29:40.5",
       "country": "United States",
       "longitude": -157.8218784,
       "latitude": 21.29214406
    },
    {
       "id": "lanikai-brewing-co",
       "name": "Lanikai Brewing Co",
       "brewery_type": "micro",
       "street": "175-C Hamakua Dr",
       "city": "Kailua",
       "state": "Hawaii",
       "postal_code": 96734,
       "created_at": "33:16.9",
       "updated_at": "29:47.2",
       "country": "United States",
       "longitude": -157.7403266,
       "latitude": 21.39044286
    },
    {
       "id": "kohola-brewery",
       "name": "Kohola Brewery",
       "brewery_type": "micro",
       "street": "910 Honoapiilani Hwy",
       "city": "Lahaina",
       "state": "Hawaii",
       "postal_code": "96761-1507",
       "website_url": "http://www.koholabrewery.com",
       "phone": 8088683198,
       "created_at": "33:16.9",
       "updated_at": "29:46.1",
       "country": "United States",
       "longitude": -156.653963,
       "latitude": 20.845329
    },
    {
       "id": "maui-brewing-co-brewpub",
       "name": "Maui Brewing Co, Brewpub",
       "brewery_type": "brewpub",
       "street": "4405 Honoapiilani Hwy Ste 217",
       "city": "Lahaina",
       "state": "Hawaii",
       "postal_code": "96761-9272",
       "website_url": "http://www.mauibrewingco.com",
       "phone": 8086693474,
       "created_at": "33:17.0",
       "updated_at": "29:48.4",
       "country": "United States",
       "longitude": -156.653963,
       "latitude": 20.845329
    },
    {
       "id": "maui-brewing-co-production",
       "name": "Maui Brewing Co - Production",
       "brewery_type": "regional",
       "street": "605 Lipoa Pkwy",
       "city": "Kihei",
       "state": "Hawaii",
       "postal_code": "96753-6947",
       "website_url": "http://www.mauibrewingco.com",
       "phone": 8082133002,
       "created_at": "33:16.9",
       "updated_at": "29:47.9",
       "country": "United States",
       "longitude": -156.4402411,
       "latitude": 20.74961566
    },
    {
       "id": "kona-brewing-co",
       "name": "Kona Brewing Co",
       "brewery_type": "regional",
       "street": "74-5612 Pawai Pl",
       "city": "Kailua Kona",
       "state": "Hawaii",
       "postal_code": "96740-1617",
       "website_url": "http://www.konabrewingco.com",
       "phone": 8083341133,
       "created_at": "33:16.9",
       "updated_at": "29:46.7",
       "country": "United States",
       "longitude": -155.997661,
       "latitude": 19.643069
    },
    {
       "id": "hawaii-nui-brewing",
       "name": "Hawaii Nui Brewing",
       "brewery_type": "micro",
       "street": "275 E Kawili St",
       "city": "Hilo",
       "state": "Hawaii",
       "postal_code": "96720-5074",
       "website_url": "http://www.hawaiinuibrewing.com",
       "phone": 8089348211,
       "created_at": "33:16.8",
       "updated_at": "29:42.3",
       "country": "United States",
       "longitude": -155.0697885,
       "latitude": 19.70587596
    },
    {},
    {
       "id": "kenai-river-brewing-co",
       "name": "Kenai River Brewing Co",
       "brewery_type": "brewpub",
       "street": "308 Homestead Ln",
       "city": "Soldotna",
       "state": "Alaska",
       "postal_code": "99669-8010",
       "website_url": "http://www.kenairiverbrewing.com",
       "phone": 9072622337,
       "created_at": "32:48.3",
       "updated_at": "20:56.2",
       "country": "United States",
       "longitude": -151.0561141,
       "latitude": 60.4850753
    },
    {
       "id": "st-elias-brewing-co",
       "name": "St Elias Brewing Co",
       "brewery_type": "micro",
       "street": "434 Sharkathmi Ave",
       "city": "Soldotna",
       "state": "Alaska",
       "postal_code": "99669-7665",
       "phone": 9072607837,
       "created_at": "32:48.5",
       "updated_at": "21:08.7",
       "country": "United States",
       "longitude": -151.0472293,
       "latitude": 60.49148673
    },
    {
       "id": "49th-state-brewing-co-anchorage",
       "name": "49th State Brewing Co - Anchorage",
       "brewery_type": "brewpub",
       "street": "717 W 3rd Ave",
       "city": "Anchorage",
       "state": "Alaska",
       "postal_code": "99501-2104",
       "website_url": "http://www.49statebrewing.com/",
       "phone": 9076832739,
       "created_at": "32:47.9",
       "updated_at": "20:34.9",
       "country": "United States",
       "longitude": -149.8958196,
       "latitude": 61.2197366
    },
    {
       "id": "faults-brewing",
       "name": "Faults Brewing",
       "brewery_type": "planning",
       "city": "Anchorage",
       "state": "Alaska",
       "postal_code": "99509-0312",
       "phone": 9073019922,
       "created_at": "32:48.1",
       "updated_at": "20:46.0",
       "country": "United States",
       "longitude": -149.8948523,
       "latitude": 61.2163129
    },
    {
       "id": "turnagain-brewing",
       "name": "Turnagain Brewing",
       "brewery_type": "planning",
       "city": "Anchorage",
       "state": "Alaska",
       "postal_code": "99507-1226",
       "phone": 9073011657,
       "created_at": "32:48.5",
       "updated_at": "21:09.1",
       "country": "United States",
       "longitude": -149.8948523,
       "latitude": 61.2163129
    },
    {
       "id": "humpys-great-alaskan-alehouse",
       "name": "Humpy's Great Alaskan Alehouse",
       "brewery_type": "contract",
       "street": "610 W 6th Ave",
       "city": "Anchorage",
       "state": "Alaska",
       "postal_code": "99501-2225",
       "website_url": "http://www.humpysalaska.com",
       "phone": 9072762337,
       "created_at": "32:48.2",
       "updated_at": "20:53.3",
       "country": "United States",
       "longitude": -149.8938928,
       "latitude": 61.216502
    },
    {
       "id": "anchorage-brewing-co",
       "name": "Anchorage Brewing Co",
       "brewery_type": "micro",
       "street": "148 W 91st Ave",
       "city": "Anchorage",
       "state": "Alaska",
       "postal_code": "99515-1901",
       "website_url": "http://www.anchoragebrewingcompany.com",
       "phone": 9073605104,
       "created_at": "32:47.9",
       "updated_at": "20:36.6",
       "country": "United States",
       "longitude": -149.8893581,
       "latitude": 61.1385311
    },
    {
       "id": "king-street-brewing-co",
       "name": "King Street Brewing Co",
       "brewery_type": "micro",
       "street": "9050 King Street",
       "city": "Anchorage",
       "state": "Alaska",
       "postal_code": 99515,
       "website_url": "http://www.kingstreetbrewing.com",
       "phone": 9073365464,
       "created_at": "32:48.3",
       "updated_at": "20:57.2",
       "country": "United States",
       "longitude": -149.879076,
       "latitude": 61.13848935
    },
    {
       "id": "cooper-landing-brewing-company-llc",
       "name": "Cooper Landing Brewing Company, LLC.",
       "brewery_type": "micro",
       "city": "Cooper Landing",
       "state": "Alaska",
       "postal_code": 99572,
       "website_url": "http://www.cooperlandingbrewing.com",
       "phone": 9072236101,
       "created_at": "32:48.0",
       "updated_at": "20:43.0",
       "country": "United States",
       "longitude": -149.8478495,
       "latitude": 60.4952185
    },
    {
       "id": "midnight-sun-brewing-co",
       "name": "Midnight Sun Brewing Co",
       "brewery_type": "micro",
       "street": "8111 Dimond Hook Dr",
       "city": "Anchorage",
       "state": "Alaska",
       "postal_code": "99507-3144",
       "website_url": "http://www.midnightsunbrewing.com",
       "phone": 9073441179,
       "created_at": "32:48.4",
       "updated_at": "21:00.5",
       "country": "United States",
       "longitude": -149.8445465,
       "latitude": 61.1471249
    },
    {
       "id": "broken-tooth-brewing-co",
       "name": "Broken Tooth Brewing Co",
       "brewery_type": "brewpub",
       "street": "2021 Spar Ave",
       "city": "Anchorage",
       "state": "Alaska",
       "postal_code": "99501-1815",
       "phone": 9072784999,
       "created_at": "32:48.0",
       "updated_at": "20:42.6",
       "country": "United States",
       "longitude": -149.8437638,
       "latitude": 61.2225517
    },
    {
       "id": "resolution-brewing-company",
       "name": "Resolution Brewing Company",
       "brewery_type": "brewpub",
       "street": "3024 Mountain View Dr Ste 105",
       "city": "Anchorage",
       "state": "Alaska",
       "postal_code": "99501-3141",
       "website_url": "http://www.resolutionbeer.com",
       "phone": 9073304523,
       "created_at": "32:48.4",
       "updated_at": "21:03.6",
       "country": "United States",
       "longitude": -149.823091,
       "latitude": 61.21997889
    },
    {
       "id": "resolution-brewing-compnay-llc",
       "name": "Resolution Brewing Compnay, LLC",
       "brewery_type": "micro",
       "street": "3024 Mountain View Drive",
       "city": "Anchorage",
       "state": "Alaska",
       "postal_code": 99501,
       "website_url": "http://www.resolutionbeer.com",
       "phone": 9077485297,
       "created_at": "32:48.4",
       "updated_at": "21:04.4",
       "country": "United States",
       "longitude": -149.823091,
       "latitude": 61.21997889
    },
    {
       "id": "last-frontier-brewing-company",
       "name": "Last Frontier Brewing Company",
       "brewery_type": "brewpub",
       "street": "238 N Boundary St",
       "city": "Wasilla",
       "state": "Alaska",
       "postal_code": "99654-7127",
       "phone": 9073577200,
       "created_at": "32:48.3",
       "updated_at": "20:59.7",
       "country": "United States",
       "longitude": -149.4395534,
       "latitude": 61.581483
    },
    {
       "id": "bearpaw-river-brewing-co",
       "name": "Bearpaw River Brewing Co",
       "brewery_type": "micro",
       "street": "4605 E Palmer Wasilla Hwy",
       "city": "Wasilla",
       "state": "Alaska",
       "postal_code": "99654-7679",
       "website_url": "http://bearpawriverbrewing.com",
       "created_at": "32:48.0",
       "updated_at": "20:40.7",
       "country": "United States",
       "longitude": -149.4127103,
       "latitude": 61.5752695
    },
    {
       "id": "girdwood-brewing-company",
       "name": "Girdwood Brewing Company",
       "brewery_type": "micro",
       "street": "2700 Alyeska Highway",
       "city": "Girdwood",
       "state": "Alaska",
       "postal_code": "99587-0058",
       "website_url": "http://www.girdwoodbrewing.com",
       "phone": 907783,
       "created_at": "32:48.1",
       "updated_at": "20:47.7",
       "country": "United States",
       "longitude": -149.1540907,
       "latitude": 60.9578421
    },
    {
       "id": "hoodoo-brewing-co",
       "name": "HooDoo Brewing Co",
       "brewery_type": "micro",
       "street": "1951 Fox Ave",
       "city": "Fairbanks",
       "state": "Alaska",
       "postal_code": "99701-2701",
       "website_url": "http://www.hoodoobrew.com",
       "phone": 9074592337,
       "created_at": "32:48.2",
       "updated_at": "20:52.4",
       "country": "United States",
       "longitude": -147.7598199,
       "latitude": 64.84855501
    },
    {
       "id": "midnite-mine-brewpub",
       "name": "Midnite Mine Brewpub",
       "brewery_type": "planning",
       "city": "Fairbanks",
       "state": "Alaska",
       "postal_code": "99701-4838",
       "phone": 9073784067,
       "created_at": "32:48.4",
       "updated_at": "21:00.9",
       "country": "United States",
       "longitude": -147.716675,
       "latitude": 64.837845
    },
    {
       "id": "silver-gulch-brewing-co",
       "name": "Silver Gulch Brewing Co",
       "brewery_type": "micro",
       "street": "2195 Old Steese Highway",
       "city": "Fox",
       "state": "Alaska",
       "postal_code": 99712,
       "website_url": "http://www.silvergulch.com",
       "phone": 9074522739,
       "created_at": "32:48.5",
       "updated_at": "21:07.0",
       "country": "United States",
       "longitude": -147.6219761,
       "latitude": 64.95708588
    },
    {
       "id": "growler-bay-brewing-co",
       "name": "Growler Bay Brewing Co",
       "brewery_type": "planning",
       "city": "Valdez",
       "state": "Alaska",
       "postal_code": "99686-3716",
       "phone": 9072555191,
       "created_at": "32:48.2",
       "updated_at": "20:49.9",
       "country": "United States",
       "longitude": -146.3493638,
       "latitude": 61.1299396
    },
    {
       "id": "haines-brewing-co",
       "name": "Haines Brewing Co",
       "brewery_type": "micro",
       "street": "327 Main St",
       "city": "Haines",
       "state": "Alaska",
       "postal_code": 99827,
       "website_url": "http://www.hainesbrewing.com",
       "phone": 9077663823,
       "created_at": "32:48.2",
       "updated_at": "20:50.8",
       "country": "United States",
       "longitude": -135.4551927,
       "latitude": 59.2357624
    },
    {
       "id": "icy-strait-brewery",
       "name": "Icy Strait Brewery",
       "brewery_type": "micro",
       "street": "286 Front St",
       "city": "Hoonah",
       "state": "Alaska",
       "postal_code": 99829,
       "phone": 9079576260,
       "created_at": "32:48.2",
       "updated_at": "20:54.2",
       "country": "United States",
       "longitude": -135.4464887,
       "latitude": 58.11031874
    },
    {
       "id": "klondike-brewing-company",
       "name": "Klondike Brewing Company",
       "brewery_type": "brewpub",
       "street": "365 2nd Ave",
       "city": "Skagway",
       "state": "Alaska",
       "postal_code": 99840,
       "website_url": "http://www.klondikebeer.com",
       "phone": 9079832778,
       "created_at": "32:48.3",
       "updated_at": "20:58.0",
       "country": "United States",
       "longitude": -135.3188721,
       "latitude": 59.45385743
    },
    {
       "id": "alaskan-brewing-co",
       "name": "Alaskan Brewing Co.",
       "brewery_type": "regional",
       "street": "5429 Shaune Dr",
       "city": "Juneau",
       "state": "Alaska",
       "postal_code": "99801-9540",
       "website_url": "http://www.alaskanbeer.com",
       "phone": 9077805866,
       "created_at": "32:47.9",
       "updated_at": "20:35.8",
       "country": "United States",
       "longitude": -134.4918763,
       "latitude": 58.35681231
    },
    {
       "id": "barnaby-brewing-company",
       "name": "Barnaby Brewing Company",
       "brewery_type": "micro",
       "street": "206 N Franklin St",
       "city": "Juneau",
       "state": "Alaska",
       "postal_code": "99801-1225",
       "website_url": "http://www.barnabybrew.com",
       "phone": 9074190916,
       "created_at": "32:48.0",
       "updated_at": "20:39.9",
       "country": "United States",
       "longitude": -134.4077265,
       "latitude": 58.30177588
    },
    {
       "id": "devils-club-brewing",
       "name": "Devil's Club Brewing",
       "brewery_type": "brewpub",
       "street": "100 N Franklin St",
       "city": "Juneau",
       "state": "Alaska",
       "postal_code": "99801-1223",
       "website_url": "http://www.devilsclubbrewing.com",
       "phone": 9077232337,
       "created_at": "32:48.1",
       "updated_at": "20:45.5",
       "country": "United States",
       "longitude": -134.406956,
       "latitude": 58.301309
    },
    {
       "id": "inside-passage-brewing-company-llc",
       "name": "Inside Passage Brewing Company, LLC",
       "brewery_type": "planning",
       "city": "Ketchikan",
       "state": "Alaska",
       "postal_code": "99901-6502",
       "phone": 5133240762,
       "created_at": "32:48.3",
       "updated_at": "20:54.6",
       "country": "United States",
       "longitude": -131.6466819,
       "latitude": 55.3430696
    },
    {
       "id": "baleen-brewing-co",
       "name": "Baleen Brewing Co.",
       "brewery_type": "planning",
       "city": "Ketchikan",
       "state": "Alaska",
       "postal_code": 99901,
       "phone": 9072207492,
       "created_at": "32:47.9",
       "updated_at": "20:38.0",
       "country": "United States",
       "longitude": -131.6466819,
       "latitude": 55.3430696
    },
    {
       "id": "arch-rock-brewing-co",
       "name": "Arch Rock Brewing Co",
       "brewery_type": "micro",
       "street": "28779 Hunter Creek Loop",
       "city": "Gold Beach",
       "state": "Oregon",
       "postal_code": "97444-9626",
       "website_url": "http://www.archrockbrewingcompany.com",
       "phone": 5412470555,
       "created_at": "34:04.6",
       "updated_at": "45:50.0",
       "country": "United States",
       "longitude": -124.4155402,
       "latitude": 42.3898306
    },
    {
       "id": "bandon-brewing-company",
       "name": "Bandon Brewing Company",
       "brewery_type": "brewpub",
       "street": "395 2nd St SE",
       "city": "Bandon",
       "state": "Oregon",
       "postal_code": "97411-9605",
       "website_url": "http://www.bandonbrewingco.com",
       "phone": 5413473911,
       "created_at": "34:04.7",
       "updated_at": "45:53.3",
       "country": "United States",
       "longitude": -124.4122494,
       "latitude": 43.1191572
    },
    {
       "id": "chetco-brewing-company",
       "name": "Chetco Brewing Company",
       "brewery_type": "micro",
       "street": "830 Railroad St",
       "city": "Brookings",
       "state": "Oregon",
       "postal_code": 97415,
       "website_url": "http://www.chetcobrew.com",
       "phone": 5416615347,
       "created_at": "34:05.4",
       "updated_at": "46:10.9",
       "country": "United States",
       "longitude": -124.2875954,
       "latitude": 42.0521588
    },
    {
       "id": "7-devils-brewing-co",
       "name": "7 Devils Brewing Co",
       "brewery_type": "brewpub",
       "street": "247 S 2nd St",
       "city": "Coos Bay",
       "state": "Oregon",
       "postal_code": "97420-1642",
       "website_url": "http://www.7devilsbrewery.com",
       "phone": 5418083738,
       "created_at": "34:04.5",
       "updated_at": "45:46.1",
       "country": "United States",
       "longitude": -124.2147508,
       "latitude": 43.36654751
    },
    {
       "id": "seaquake-brewing",
       "name": "Seaquake Brewing",
       "brewery_type": "brewpub",
       "street": "400 Front St",
       "city": "Crescent City",
       "state": "California",
       "postal_code": "95531-4369",
       "website_url": "http://www.seaquakebrewing.com",
       "phone": 7074654444,
       "created_at": "33:00.6",
       "updated_at": "02:16.8",
       "country": "United States",
       "longitude": -124.200063,
       "latitude": 41.749045
    },
    {
       "id": "port-opints-brewing-co",
       "name": "Port O'Pints Brewing Co.",
       "brewery_type": "brewpub",
       "street": "1215 Northcrest Dr",
       "city": "Crescent City",
       "state": "California",
       "postal_code": "95531-2320",
       "website_url": "http://www.portopints.com",
       "phone": 7074601154,
       "created_at": "32:59.7",
       "updated_at": "01:08.3",
       "country": "United States",
       "longitude": -124.1993085,
       "latitude": 41.76863139
    },
    {
       "id": "the-booth-brewing-co",
       "name": "The Booth Brewing Co.",
       "brewery_type": "micro",
       "street": "123 W 3rd St",
       "city": "Eureka",
       "state": "California",
       "postal_code": "95501-0222",
       "website_url": "http://www.theboothbrewing.com",
       "phone": 7075725728,
       "created_at": "33:02.0",
       "updated_at": "03:48.8",
       "country": "United States",
       "longitude": -124.1743072,
       "latitude": 40.80226985
    },
    {
       "id": "lost-coast-brewery-and-cafe-table-bluff-brewing-inc",
       "name": "Lost Coast Brewery and Cafe - Table Bluff Brewing, Inc.",
       "brewery_type": "regional",
       "street": "617 4th St",
       "city": "Eureka",
       "state": "California",
       "postal_code": "95501-1013",
       "website_url": "http://www.lostcoast.com",
       "phone": 7074454480,
       "created_at": "32:57.9",
       "updated_at": "59:11.9",
       "country": "United States",
       "longitude": -124.1648141,
       "latitude": 40.80302047
    },
    {
       "id": "humboldt-springs-brewing-co",
       "name": "Humboldt Springs Brewing Co",
       "brewery_type": "planning",
       "city": "Eureka",
       "state": "California",
       "postal_code": 95501,
       "phone": 7074993050,
       "created_at": "32:56.7",
       "updated_at": "29:42.2",
       "country": "United States",
       "longitude": -124.1636729,
       "latitude": 40.8020712
    },
    {
       "id": "eel-river-brewing-co",
       "name": "Eel River Brewing Co",
       "brewery_type": "micro",
       "street": "1777 Alamar Way",
       "city": "Fortuna",
       "state": "California",
       "postal_code": "95540-9548",
       "website_url": "http://www.eelriverbrewing.com",
       "phone": 7077252739,
       "created_at": "32:54.9",
       "updated_at": "27:52.5",
       "country": "United States",
       "longitude": -124.1524471,
       "latitude": 40.57874196
    },
    {
       "id": "blackbeards-brewing-company",
       "name": "Blackbeard's Brewing Company",
       "brewery_type": "brewpub",
       "street": "700 W Ocean Ave",
       "city": "Westport",
       "state": "Washington",
       "postal_code": "98595-9603",
       "website_url": "http://www.blackbeardsbrewing.com",
       "phone": 3602687662,
       "created_at": "34:28.4",
       "updated_at": "33:02.3",
       "country": "United States",
       "longitude": -124.1175413,
       "latitude": 46.8867861
    },
    {
       "id": "six-rivers-brewery",
       "name": "Six Rivers Brewery",
       "brewery_type": "brewpub",
       "street": "1300 Central Ave",
       "city": "McKinleyville",
       "state": "California",
       "postal_code": "95519-6429",
       "created_at": "33:00.9",
       "updated_at": "02:32.6",
       "country": "United States",
       "longitude": -124.1003888,
       "latitude": 40.9260642
    },
    {
       "id": "defeat-river-brewery",
       "name": "Defeat River Brewery",
       "brewery_type": "micro",
       "street": "473 Fir Avenue",
       "city": "Reedsport",
       "state": "Oregon",
       "postal_code": 97467,
       "website_url": "http://www.defeatriverbrewery.com",
       "phone": 5418088862,
       "created_at": "34:05.7",
       "updated_at": "01:17.2",
       "country": "United States",
       "longitude": -124.0974021,
       "latitude": 43.70234471
    },
    {
       "id": "bier-one-brewing",
       "name": "Bier One Brewing",
       "brewery_type": "brewpub",
       "street": "424 SW Coast Hwy",
       "city": "Newport",
       "state": "Oregon",
       "postal_code": "97365-4930",
       "website_url": "http://www.bier-one.com",
       "phone": 5412654630,
       "created_at": "34:04.9",
       "updated_at": "45:57.4",
       "country": "United States",
       "longitude": -124.0572864,
       "latitude": 44.6330765
    },
    {
       "id": "north-jetty-brewing",
       "name": "North Jetty Brewing",
       "brewery_type": "micro",
       "street": "4200 Pacific Way",
       "city": "Seaview",
       "state": "Washington",
       "postal_code": "98644-4212",
       "website_url": "http://www.northjettybrewing.com",
       "phone": 3606424234,
       "created_at": "34:31.5",
       "updated_at": "37:23.4",
       "country": "United States",
       "longitude": -124.0545827,
       "latitude": 46.333147
    },
    {
       "id": "rusty-truck-brewing-company",
       "name": "Rusty Truck Brewing Company",
       "brewery_type": "brewpub",
       "street": "4649 SW Highway 101",
       "city": "Lincoln City",
       "state": "Oregon",
       "postal_code": "97367-1557",
       "website_url": "http://www.rustytruckbrewing.com",
       "phone": 5419947729,
       "created_at": "34:07.6",
       "updated_at": "04:38.6",
       "country": "United States",
       "longitude": -124.0209913,
       "latitude": 44.93273319
    },
    {
       "id": "mcmenamins-lighthouse-brewery",
       "name": "McMenamins Lighthouse Brewery",
       "brewery_type": "brewpub",
       "street": "4157 NW Highway 101 Ste 117",
       "city": "Lincoln City",
       "state": "Oregon",
       "postal_code": "97367-5050",
       "website_url": "http://www.mcmenamins.com",
       "phone": 5419949628,
       "created_at": "34:06.8",
       "updated_at": "03:09.6",
       "country": "United States",
       "longitude": -124.0050694,
       "latitude": 44.99673605
    },
    {
       "id": "mad-river-brewing-co",
       "name": "Mad River Brewing Co",
       "brewery_type": "micro",
       "street": "101 Taylor Way",
       "city": "Blue Lake",
       "state": "California",
       "postal_code": 95525,
       "website_url": "http://www.madriverbrewing.com",
       "phone": 7076684151,
       "created_at": "32:58.1",
       "updated_at": "59:19.7",
       "country": "United States",
       "longitude": -123.992063,
       "latitude": 40.878682
    },
    {
       "id": "pelican-brewing-company",
       "name": "Pelican Brewing Company",
       "brewery_type": "regional",
       "street": "33180 Cape Kiwanda Dr",
       "city": "Pacific City",
       "state": "Oregon",
       "postal_code": "97135-8012",
       "website_url": "http://www.pelicanbrewery.com",
       "phone": 5039657007,
       "created_at": "34:07.3",
       "updated_at": "03:58.7",
       "country": "United States",
       "longitude": -123.9695724,
       "latitude": 45.21550832
    },
    {
       "id": "pelican-brewing-company-cannon-beach",
       "name": "Pelican Brewing Company - Cannon Beach",
       "brewery_type": "brewpub",
       "street": "1371 S Hemlock St",
       "city": "Cannon Beach",
       "state": "Oregon",
       "postal_code": "97110-3055",
       "phone": 5039083377,
       "created_at": "34:07.3",
       "updated_at": "04:00.2",
       "country": "United States",
       "longitude": -123.9620236,
       "latitude": 45.88850543
    },
    {
       "id": "bills-tavern-and-brewhouse",
       "name": "Bill's Tavern and Brewhouse",
       "brewery_type": "brewpub",
       "street": "188 N Hemlock St",
       "city": "Cannon Beach",
       "state": "Oregon",
       "postal_code": "97110-3037",
       "website_url": "http://www.billstavernandbrewhouse.com",
       "phone": 5034362202,
       "created_at": "34:04.9",
       "updated_at": "45:58.9",
       "country": "United States",
       "longitude": -123.9610943,
       "latitude": 45.89803615
    },
    {
       "id": "gyppo-ale-mill",
       "name": "Gyppo Ale Mill",
       "brewery_type": "micro",
       "city": "Whitethorn",
       "state": "California",
       "postal_code": "95589-0627",
       "phone": 7072233443,
       "created_at": "32:56.1",
       "updated_at": "29:05.8",
       "country": "United States",
       "longitude": -123.9430832,
       "latitude": 40.0237557
    },
    {
       "id": "seaside-brewery",
       "name": "Seaside Brewery",
       "brewery_type": "brewpub",
       "street": "851 Broadway St",
       "city": "Seaside",
       "state": "Oregon",
       "postal_code": "97138-6823",
       "website_url": "http://www.seasidebrewery.com",
       "phone": 5037175451,
       "created_at": "34:07.7",
       "updated_at": "04:47.5",
       "country": "United States",
       "longitude": -123.9223842,
       "latitude": 45.99299261
    },
    {
       "id": "hoquiam-brewing-company",
       "name": "Hoquiam Brewing Company",
       "brewery_type": "micro",
       "street": "526 8th St",
       "city": "Hoquiam",
       "state": "Washington",
       "postal_code": "98550-3521",
       "website_url": "http://www.hoquiambrews.com",
       "phone": 3606378252,
       "created_at": "34:30.5",
       "updated_at": "35:51.6",
       "country": "United States",
       "longitude": -123.8865612,
       "latitude": 46.97536712
    },
    {
       "id": "pelican-brewing-company-tillamook",
       "name": "Pelican Brewing Company - Tillamook",
       "brewery_type": "micro",
       "street": "1708 1st St",
       "city": "Tillamook",
       "state": "Oregon",
       "postal_code": "97141-2104",
       "phone": 5039657007,
       "created_at": "34:07.3",
       "updated_at": "04:01.7",
       "country": "United States",
       "longitude": -123.8462991,
       "latitude": 45.45789207
    },
    {
       "id": "de-garde-brewing",
       "name": "De Garde Brewing",
       "brewery_type": "micro",
       "street": "114 Ivy Ave",
       "city": "Tillamook",
       "state": "Oregon",
       "postal_code": "97141-2214",
       "website_url": "http://www.degardebrewing.com/",
       "phone": 5038151635,
       "created_at": "34:05.7",
       "updated_at": "01:12.9",
       "country": "United States",
       "longitude": -123.8454035,
       "latitude": 45.45730575
    },
    {
       "id": "werner-brewing-company",
       "name": "Werner Brewing Company",
       "brewery_type": "micro",
       "street": "2807 3rd St",
       "city": "Tillamook",
       "state": "Oregon",
       "postal_code": 97141,
       "phone": 5038126040,
       "created_at": "34:08.3",
       "updated_at": "05:41.6",
       "country": "United States",
       "longitude": -123.8425805,
       "latitude": 45.4563275
    },
    {
       "id": "wet-dog-cafe-and-brewery",
       "name": "Wet Dog Cafe & Brewery",
       "brewery_type": "brewpub",
       "street": "990 Astor St",
       "city": "Astoria",
       "state": "Oregon",
       "postal_code": "97103-4201",
       "website_url": "http://www.wetdogcafe.com",
       "phone": 5033256975,
       "created_at": "34:08.3",
       "updated_at": "05:43.1",
       "country": "United States",
       "longitude": -123.835821,
       "latitude": 46.190557
    },
    {
       "id": "buoy-beer-company",
       "name": "Buoy Beer Company",
       "brewery_type": "micro",
       "street": "1 8th St",
       "city": "Astoria",
       "state": "Oregon",
       "postal_code": "97103-4506",
       "website_url": "http://www.buoybeer.com",
       "phone": 5033254540,
       "created_at": "34:05.3",
       "updated_at": "46:06.1",
       "country": "United States",
       "longitude": -123.835151,
       "latitude": 46.1913235
    },
    {
       "id": "astoria-brewing-company",
       "name": "Astoria Brewing Company",
       "brewery_type": "micro",
       "street": "1196 Marine Dr",
       "city": "Astoria",
       "state": "Oregon",
       "postal_code": "97103-4112",
       "phone": 5037413040,
       "created_at": "34:04.7",
       "updated_at": "45:50.9",
       "country": "United States",
       "longitude": -123.831516,
       "latitude": 46.18980259
    },
    {
       "id": "reach-break-brewing",
       "name": "Reach Break Brewing",
       "brewery_type": "micro",
       "street": "1343 Duane St",
       "city": "Astoria",
       "state": "Oregon",
       "postal_code": "97103-3917",
       "phone": 5034680743,
       "created_at": "34:07.5",
       "updated_at": "04:23.3",
       "country": "United States",
       "longitude": -123.8289931,
       "latitude": 46.18836741
    },
    {
       "id": "fort-george-brewery",
       "name": "Fort George Brewery",
       "brewery_type": "regional",
       "street": "1483 Duane St",
       "city": "Astoria",
       "state": "Oregon",
       "postal_code": "97103-3819",
       "website_url": "http://www.fortgeorgebrewery.com",
       "phone": 5033257468,
       "created_at": "34:06.0",
       "updated_at": "01:41.1",
       "country": "United States",
       "longitude": -123.8274681,
       "latitude": 46.1883837
    },
    {
       "id": "steam-donkey-brewing-co",
       "name": "Steam Donkey Brewing Co",
       "brewery_type": "micro",
       "street": "101 E Wishkah St",
       "city": "Aberdeen",
       "state": "Washington",
       "postal_code": "98520-6503",
       "website_url": "http://Steamdonkeybrewing.com",
       "phone": 3606379431,
       "created_at": "34:33.0",
       "updated_at": "39:40.2",
       "country": "United States",
       "longitude": -123.81773,
       "latitude": 46.974242
    },
    {
       "id": "hondos-brew-and-cork-pub",
       "name": "Hondo's Brew and Cork Pub",
       "brewery_type": "micro",
       "street": "2703 Marine Dr",
       "city": "Astoria",
       "state": "Oregon",
       "postal_code": "97103-2900",
       "website_url": "http://www.hondosbrew.net",
       "phone": 5033252234,
       "created_at": "34:06.2",
       "updated_at": "02:11.9",
       "country": "United States",
       "longitude": -123.8140426,
       "latitude": 46.18885817
    },
    {
       "id": "north-coast-brewing-co-inc",
       "name": "North Coast Brewing Co Inc.",
       "brewery_type": "regional",
       "street": "455 N Main St",
       "city": "Fort Bragg",
       "state": "California",
       "postal_code": "95437-3215",
       "website_url": "http://www.northcoastbrewing.com",
       "phone": 7079642739,
       "created_at": "32:58.8",
       "updated_at": "00:06.9",
       "country": "United States",
       "longitude": -123.8057604,
       "latitude": 39.44618406
    },
    {
       "id": "siuslaw-brewing",
       "name": "Siuslaw Brewing",
       "brewery_type": "micro",
       "street": "16558 Alsea Hwy",
       "city": "Alsea",
       "state": "Oregon",
       "postal_code": "97324-9624",
       "phone": 5417401606,
       "created_at": "34:07.8",
       "updated_at": "04:56.5",
       "country": "United States",
       "longitude": -123.6906645,
       "latitude": 44.353359
    },
    {
       "id": "wild-river-brewing-and-pizza-co",
       "name": "Wild River Brewing and Pizza Co",
       "brewery_type": "brewpub",
       "street": "249 N Redwood Hwy",
       "city": "Cave Junction",
       "state": "Oregon",
       "postal_code": "97523-9023",
       "website_url": "http://www.wildriverbrewing.com",
       "phone": 5414717487,
       "created_at": "34:08.4",
       "updated_at": "05:47.5",
       "country": "United States",
       "longitude": -123.6469844,
       "latitude": 42.1622503
    },
    {
       "id": "barhop-brewing",
       "name": "Barhop Brewing",
       "brewery_type": "brewpub",
       "street": "124 W Railroad Ave",
       "city": "Port Angeles",
       "state": "Washington",
       "postal_code": "98362-2621",
       "website_url": "http://www.barhopbrewing.com",
       "phone": 3604605155,
       "created_at": "34:28.1",
       "updated_at": "32:37.2",
       "country": "United States",
       "longitude": -123.4332787,
       "latitude": 48.12098065
    },
    {
       "id": "dungeness-brewing-company",
       "name": "Dungeness Brewing Company",
       "brewery_type": "micro",
       "street": "4017 S Mount Angeles Rd",
       "city": "Port Angeles",
       "state": "Washington",
       "postal_code": "98362-8966",
       "website_url": "http://www.dungenessbrewing.com",
       "phone": 3607751877,
       "created_at": "34:29.3",
       "updated_at": "34:08.1",
       "country": "United States",
       "longitude": -123.418449,
       "latitude": 48.087279
    },
    {
       "id": "river-mile-38-brewing-co",
       "name": "River Mile 38 Brewing Co",
       "brewery_type": "micro",
       "street": "285 3rd St",
       "city": "Cathlamet",
       "state": "Washington",
       "postal_code": "98612-9561",
       "website_url": "http://www.rivermile38.com",
       "phone": 3603554662,
       "created_at": "34:32.5",
       "updated_at": "38:43.0",
       "country": "United States",
       "longitude": -123.3853742,
       "latitude": 46.2054338
    },
    {
       "id": "bierly-brewing-eats-and-treats",
       "name": "Bierly Brewing @ Eats and Treats",
       "brewery_type": "brewpub",
       "street": "1644 Main St",
       "city": "Philomath",
       "state": "Oregon",
       "postal_code": "97370-9237",
       "phone": 5412575126,
       "created_at": "34:04.9",
       "updated_at": "45:58.0",
       "country": "United States",
       "longitude": -123.3625416,
       "latitude": 44.539936
    },
    {
       "id": "mcmenamins-roseburg-station-brewery",
       "name": "McMenamins Roseburg Station Brewery",
       "brewery_type": "micro",
       "street": "700 SE Sheridan St",
       "city": "Roseburg",
       "state": "Oregon",
       "postal_code": "97470-3470",
       "website_url": "http://www.mcmenamins.com",
       "phone": 5416721934,
       "created_at": "34:06.9",
       "updated_at": "03:18.6",
       "country": "United States",
       "longitude": -123.349051,
       "latitude": 43.208554
    },
    {
       "id": "draper-brewing",
       "name": "Draper Brewing",
       "brewery_type": "micro",
       "street": "640 SE Jackson St",
       "city": "Roseburg",
       "state": "Oregon",
       "postal_code": 97470,
       "website_url": "http://www.draperbrewing.com",
       "phone": 5415805585,
       "created_at": "34:05.8",
       "updated_at": "01:26.2",
       "country": "United States",
       "longitude": -123.3445979,
       "latitude": 43.2084738
    },
    {
       "id": "jds-sports-pub-and-brewery",
       "name": "JD's Sports Pub and Brewery",
       "brewery_type": "brewpub",
       "street": "690 Redwood Hwy",
       "city": "Grants Pass",
       "state": "Oregon",
       "postal_code": "97527-5582",
       "website_url": "http://www.jdssportsbarandbrewery.com",
       "phone": 5414710383,
       "created_at": "34:06.3",
       "updated_at": "02:19.4",
       "country": "United States",
       "longitude": -123.3420515,
       "latitude": 42.42319062
    },
    {
       "id": "backside-brewing-co",
       "name": "Backside Brewing Co",
       "brewery_type": "brewpub",
       "street": "1640 NE Odell Ave",
       "city": "Roseburg",
       "state": "Oregon",
       "postal_code": "97470-3320",
       "website_url": "http://www.backsidebrewingco.com",
       "phone": 5415801906,
       "created_at": "34:04.7",
       "updated_at": "45:51.9",
       "country": "United States",
       "longitude": -123.3377881,
       "latitude": 43.21449839
    },
    {
       "id": "climate-city-brewing-co",
       "name": "Climate City Brewing Co.",
       "brewery_type": "brewpub",
       "street": "509 SW G St",
       "city": "Grants Pass",
       "state": "Oregon",
       "postal_code": "97526-2472",
       "website_url": "http://www.climatecitybrewing.com",
       "phone": 5414793725,
       "created_at": "34:05.4",
       "updated_at": "46:11.8",
       "country": "United States",
       "longitude": -123.3313287,
       "latitude": 42.4401171
    },
    {
       "id": "conner-fields-brewing",
       "name": "Conner Fields Brewing",
       "brewery_type": "brewpub",
       "street": "121 SW H St",
       "city": "Grants Pass",
       "state": "Oregon",
       "postal_code": "97526-2505",
       "website_url": "http://www.connerfields.com",
       "phone": 5415082337,
       "created_at": "34:05.5",
       "updated_at": "46:14.5",
       "country": "United States",
       "longitude": -123.3284921,
       "latitude": 42.43842401
    },
    {
       "id": "wild-river-brewing-and-pizza-co-grants-pass",
       "name": "Wild River Brewing and Pizza Co - Grants Pass",
       "brewery_type": "brewpub",
       "street": "595 NE E St",
       "city": "Grants Pass",
       "state": "Oregon",
       "postal_code": "97526-2356",
       "website_url": "http://www.wildriverbrewing.com",
       "phone": 5414717487,
       "created_at": "34:08.4",
       "updated_at": "05:49.0",
       "country": "United States",
       "longitude": -123.319,
       "latitude": 42.43927512
    },
    {
       "id": "block-15-brewery-and-tap-room",
       "name": "Block 15 Brewery & Tap Room",
       "brewery_type": "brewpub",
       "street": "3415 SW Deschutes St",
       "city": "Corvallis",
       "state": "Oregon",
       "postal_code": "97333-9283",
       "website_url": "http://www.block15.com",
       "phone": 5417522337,
       "created_at": "34:04.9",
       "updated_at": "46:00.3",
       "country": "United States",
       "longitude": -123.269049,
       "latitude": 44.5305284
    },
    {
       "id": "block-15",
       "name": "Block 15",
       "brewery_type": "brewpub",
       "street": "300 SW Jefferson Ave",
       "city": "Corvallis",
       "state": "Oregon",
       "postal_code": "97333-4607",
       "phone": 5417582077,
       "created_at": "34:04.9",
       "updated_at": "45:59.9",
       "country": "United States",
       "longitude": -123.262222,
       "latitude": 44.5622701
    },
    {
       "id": "oregon-trail-brewery",
       "name": "Oregon Trail Brewery",
       "brewery_type": "micro",
       "street": "341 SW 2nd St",
       "city": "Corvallis",
       "state": "Oregon",
       "postal_code": "97333-4640",
       "website_url": "http://www.oregontrailbrewery.com",
       "phone": 5417583527,
       "created_at": "34:07.2",
       "updated_at": "03:55.7",
       "country": "United States",
       "longitude": -123.2608445,
       "latitude": 44.5612822
    },
    {
       "id": "flat-tail-brewing-co",
       "name": "Flat Tail Brewing Co",
       "brewery_type": "brewpub",
       "street": "202 SW 1st St",
       "city": "Corvallis",
       "state": "Oregon",
       "postal_code": "97333-4727",
       "website_url": "http://www.flattailcorvallis.com",
       "phone": 5417582229,
       "created_at": "34:05.9",
       "updated_at": "01:38.2",
       "country": "United States",
       "longitude": -123.2598775,
       "latitude": 44.56196237
    },
    {
       "id": "sky-high-brewing",
       "name": "Sky High Brewing",
       "brewery_type": "brewpub",
       "street": "160 NW Jackson Ave",
       "city": "Corvallis",
       "state": "Oregon",
       "postal_code": "97330-4827",
       "website_url": "http://www.skyhighbrewing.com",
       "phone": 5412073277,
       "created_at": "34:07.8",
       "updated_at": "04:58.0",
       "country": "United States",
       "longitude": -123.2590342,
       "latitude": 44.5648291
    },
    {
       "id": "ukiah-brewing-co",
       "name": "Ukiah Brewing Co",
       "brewery_type": "brewpub",
       "street": "102 S State St",
       "city": "Ukiah",
       "state": "California",
       "postal_code": "95482-4903",
       "website_url": "http://www.ukiahbrewingco.com",
       "phone": 7074685898,
       "created_at": "33:02.7",
       "updated_at": "04:35.4",
       "country": "United States",
       "longitude": -123.2076383,
       "latitude": 39.14945851
    },
    {
       "id": "rocland-beverage-co",
       "name": "Rocland Beverage Co",
       "brewery_type": "contract",
       "street": "1601 Airport Rd",
       "city": "Ukiah",
       "state": "California",
       "postal_code": "95482-6456",
       "website_url": "http://www.asskisserales.com",
       "phone": 7076577721,
       "created_at": "33:00.2",
       "updated_at": "01:41.8",
       "country": "United States",
       "longitude": -123.199573,
       "latitude": 39.126287
    },
    {
       "id": "allegory-brewing",
       "name": "Allegory Brewing",
       "brewery_type": "micro",
       "street": "777 NE 4th St",
       "city": "McMinnville",
       "state": "Oregon",
       "postal_code": "97128-4502",
       "website_url": "http://www.allegorybrewing.com",
       "phone": 9713731253,
       "created_at": "34:04.6",
       "updated_at": "45:48.6",
       "country": "United States",
       "longitude": -123.1917806,
       "latitude": 45.21081917
    },
    {
       "id": "golden-valley-brewery-and-pub",
       "name": "Golden Valley Brewery and Pub",
       "brewery_type": "brewpub",
       "street": "980 NE 4th St",
       "city": "McMinnville",
       "state": "Oregon",
       "postal_code": "97128-4308",
       "created_at": "34:06.1",
       "updated_at": "01:56.2",
       "country": "United States",
       "longitude": -123.1894925,
       "latitude": 45.21065713
    },
    {
       "id": "heater-allen-brewery",
       "name": "Heater Allen Brewery",
       "brewery_type": "micro",
       "street": "907 NE 10th Ave",
       "city": "McMinnville",
       "state": "Oregon",
       "postal_code": "97128-4003",
       "website_url": "http://www.heaterallen.com",
       "phone": 5034724898,
       "created_at": "34:06.2",
       "updated_at": "02:08.5",
       "country": "United States",
       "longitude": -123.1879728,
       "latitude": 45.21407234
    },
    {
       "id": "evasion-brewing-production-facility",
       "name": "Evasion Brewing - Production Facility",
       "brewery_type": "micro",
       "street": "4230 NE Riverside Dr",
       "city": "McMinnville",
       "state": "Oregon",
       "postal_code": "97128-8403",
       "website_url": "http://www.evasionbrewing.com",
       "phone": 5038355322,
       "created_at": "34:05.8",
       "updated_at": "01:30.7",
       "country": "United States",
       "longitude": -123.1519619,
       "latitude": 45.22899995
    },
    {
       "id": "oakshire-brewing",
       "name": "Oakshire Brewing",
       "brewery_type": "micro",
       "street": "1055 Madera St",
       "city": "Eugene",
       "state": "Oregon",
       "postal_code": "97402-2019",
       "website_url": "http://www.oakbrew.com",
       "phone": 5416884555,
       "created_at": "34:07.1",
       "updated_at": "03:42.3",
       "country": "United States",
       "longitude": -123.1410241,
       "latitude": 44.07299355
    },
    {
       "id": "hare-in-the-forest",
       "name": "Hare In the Forest",
       "brewery_type": "micro",
       "street": "9311 Gibson Ln",
       "city": "Potter Valley",
       "state": "California",
       "postal_code": "95469-8799",
       "website_url": "http://www.hareintheforest.com",
       "phone": 9105457759,
       "created_at": "32:56.3",
       "updated_at": "29:13.2",
       "country": "United States",
       "longitude": -123.1252703,
       "latitude": 39.33623934
    },
    {
       "id": "waltz-brewing",
       "name": "Waltz Brewing",
       "brewery_type": "micro",
       "street": "1900 A St",
       "city": "Forest Grove",
       "state": "Oregon",
       "postal_code": "97116-2303",
       "website_url": "http://www.waltzbrewing.com",
       "phone": 5038966057,
       "created_at": "34:08.3",
       "updated_at": "05:38.6",
       "country": "United States",
       "longitude": -123.1142562,
       "latitude": 45.5185238
    },
    {
       "id": "ridgewalker-brewing",
       "name": "Ridgewalker Brewing",
       "brewery_type": "brewpub",
       "street": "1921 21st Ave",
       "city": "Forest Grove",
       "state": "Oregon",
       "postal_code": "97116-1637",
       "phone": 5038671634,
       "created_at": "34:07.5",
       "updated_at": "04:24.8",
       "country": "United States",
       "longitude": -123.1129966,
       "latitude": 45.52115845
    },
    {
       "id": "ninkasi-brewing-co",
       "name": "Ninkasi Brewing Co",
       "brewery_type": "regional",
       "street": "155 Blair Blvd",
       "city": "Eugene",
       "state": "Oregon",
       "postal_code": "97402-4146",
       "website_url": "http://www.ninkasibrewing.com",
       "phone": 5413442739,
       "created_at": "34:07.1",
       "updated_at": "03:40.9",
       "country": "United States",
       "longitude": -123.1108891,
       "latitude": 44.05734326
    },
    {
       "id": "hop-valley-brewing-co",
       "name": "Hop Valley Brewing Co",
       "brewery_type": "large",
       "street": "990 W 1st Ave",
       "city": "Eugene",
       "state": "Oregon",
       "postal_code": "97402-4904",
       "created_at": "34:06.3",
       "updated_at": "02:13.4",
       "country": "United States",
       "longitude": -123.1074506,
       "latitude": 44.05820645
    },
    {
       "id": "kaiser-brewing-company-llc",
       "name": "Kaiser Brewing Company, LLC",
       "brewery_type": "micro",
       "street": "1607 Hawthorne St",
       "city": "Forest Grove",
       "state": "Oregon",
       "postal_code": "97116-2537",
       "website_url": "http://www.kaiserbrewingco.com",
       "phone": 5034129628,
       "created_at": "34:06.3",
       "updated_at": "02:20.9",
       "country": "United States",
       "longitude": -123.0990254,
       "latitude": 45.51421585
    },
    {
       "id": "manifest-beer-company",
       "name": "Manifest Beer Company",
       "brewery_type": "micro",
       "street": "740 Willamette St",
       "city": "Eugene",
       "state": "Oregon",
       "postal_code": "97401-2934",
       "website_url": "http://www.manifestbeer.com",
       "phone": 5412067232,
       "created_at": "34:06.6",
       "updated_at": "02:46.6",
       "country": "United States",
       "longitude": -123.0928507,
       "latitude": 44.05174833
    },
    {
       "id": "mckenzie-brewing-company",
       "name": "McKenzie Brewing Company",
       "brewery_type": "brewpub",
       "street": "199 E 5th Ave",
       "city": "Eugene",
       "state": "Oregon",
       "postal_code": "97401-8715",
       "website_url": "http://www.steelheadbrewery.com",
       "phone": 5416862739,
       "created_at": "34:06.6",
       "updated_at": "02:51.7",
       "country": "United States",
       "longitude": -123.089843,
       "latitude": 44.054404
    },
    {
       "id": "mcmenamins-high-street-brewery",
       "name": "McMenamins High Street Brewery",
       "brewery_type": "brewpub",
       "street": "1243 High St",
       "city": "Eugene",
       "state": "Oregon",
       "postal_code": "97401-3207",
       "website_url": "http://www.mcmenamins.com",
       "phone": 5413454913,
       "created_at": "34:06.7",
       "updated_at": "03:03.5",
       "country": "United States",
       "longitude": -123.0879134,
       "latitude": 44.0461346
    },
    {
       "id": "coldfire-brewing",
       "name": "Coldfire Brewing",
       "brewery_type": "micro",
       "street": "263 Mill St",
       "city": "Eugene",
       "state": "Oregon",
       "postal_code": "97401-2410",
       "website_url": "http://www.coldfirebrewing.com",
       "phone": 5415569374,
       "created_at": "34:05.5",
       "updated_at": "46:13.2",
       "country": "United States",
       "longitude": -123.0864976,
       "latitude": 44.05674657
    },
    {
       "id": "sam-bonds-brewing-co",
       "name": "Sam Bond's Brewing Co",
       "brewery_type": "brewpub",
       "street": "540 E 8th Ave",
       "city": "Eugene",
       "state": "Oregon",
       "postal_code": "97401-3344",
       "website_url": "http://www.sambondsbrewing.com",
       "phone": 5412468162,
       "created_at": "34:07.7",
       "updated_at": "04:41.6",
       "country": "United States",
       "longitude": -123.0843307,
       "latitude": 44.05093611
    },
    {
       "id": "mcmenamins-thompson-brewery",
       "name": "McMenamins Thompson Brewery",
       "brewery_type": "micro",
       "street": "3575 Liberty Rd S",
       "city": "Salem",
       "state": "Oregon",
       "postal_code": "97302-5621",
       "website_url": "http://www.mcmenamins.com",
       "phone": 5033712945,
       "created_at": "34:06.9",
       "updated_at": "03:20.1",
       "country": "United States",
       "longitude": -123.051309,
       "latitude": 44.904043
    },
    {
       "id": "hop-valley-brewing-co",
       "name": "Hop Valley Brewing Co",
       "brewery_type": "large",
       "street": "980 Kruse Way",
       "city": "Springfield",
       "state": "Oregon",
       "postal_code": "97477-1073",
       "website_url": "http://www.hopvalleybrewing.com",
       "phone": 5417443330,
       "created_at": "34:06.3",
       "updated_at": "02:14.8",
       "country": "United States",
       "longitude": -123.0399796,
       "latitude": 44.08270624
    },
    {
       "id": "ram-restaurant-and-brewery-salem",
       "name": "RAM Restaurant and Brewery - Salem",
       "brewery_type": "brewpub",
       "street": "515 12th St SE",
       "city": "Salem",
       "state": "Oregon",
       "postal_code": "97301-4034",
       "website_url": "http://www.theram.com",
       "phone": 5033631904,
       "created_at": "34:07.4",
       "updated_at": "04:20.3",
       "country": "United States",
       "longitude": -123.0292121,
       "latitude": 44.932777
    },
    {
       "id": "friday-harbor-brewing",
       "name": "Friday Harbor Brewing",
       "brewery_type": "micro",
       "street": "665B Mullis St",
       "city": "Friday Harbor",
       "state": "Washington",
       "postal_code": "98250-7902",
       "website_url": "http://www.fridayharborbrewhouse.com",
       "phone": 3603786205,
       "created_at": "34:29.9",
       "updated_at": "35:06.9",
       "country": "United States",
       "longitude": -123.0223327,
       "latitude": 48.53026803
    },
    {
       "id": "plank-town-brewing",
       "name": "Plank Town Brewing",
       "brewery_type": "micro",
       "street": "346 Main St",
       "city": "Springfield",
       "state": "Oregon",
       "postal_code": "97477-5362",
       "website_url": "http://planktownbrewing.com",
       "phone": 4582017039,
       "created_at": "34:07.3",
       "updated_at": "04:06.5",
       "country": "United States",
       "longitude": -123.0214468,
       "latitude": 44.04627308
    },
    {
       "id": "santiam-brewing-co",
       "name": "Santiam Brewing Co",
       "brewery_type": "micro",
       "street": "2544 19th St SE",
       "city": "Salem",
       "state": "Oregon",
       "postal_code": "97302-1501",
       "website_url": "http://www.santiambrewing.com",
       "phone": 5035075257,
       "created_at": "34:07.7",
       "updated_at": "04:43.1",
       "country": "United States",
       "longitude": -123.0209084,
       "latitude": 44.91644665
    },
    {
       "id": "gilgamesh-brewing-co",
       "name": "Gilgamesh Brewing Co",
       "brewery_type": "micro",
       "street": "2065 Madrona Ave SE",
       "city": "Salem",
       "state": "Oregon",
       "postal_code": "97302-1010",
       "website_url": "http://gilgameshbrewing.com",
       "phone": 9702014409,
       "created_at": "34:06.1",
       "updated_at": "01:54.7",
       "country": "United States",
       "longitude": -123.0191178,
       "latitude": 44.90504576
    },
    {
       "id": "ratchet-brewery",
       "name": "Ratchet Brewery",
       "brewery_type": "brewpub",
       "street": "2701 22nd St SE",
       "city": "Salem",
       "state": "Oregon",
       "postal_code": "97302-1553",
       "phone": 5035809864,
       "created_at": "34:07.5",
       "updated_at": "04:21.9",
       "country": "United States",
       "longitude": -123.0173762,
       "latitude": 44.91418158
    },
    {
       "id": "cloverdale-ale-companys-ruth-mcgowans-brewpub",
       "name": "Cloverdale Ale Company's Ruth McGowan's Brewpub",
       "brewery_type": "brewpub",
       "street": "131 E 1st St",
       "city": "Cloverdale",
       "state": "California",
       "postal_code": "95425-3701",
       "website_url": "http://www.ruthmcgowansbrewpub.com",
       "phone": 7078949610,
       "created_at": "32:53.9",
       "updated_at": "26:51.3",
       "country": "United States",
       "longitude": -123.0165729,
       "latitude": 38.80532322
    },
    {
       "id": "san-juan-island-brewing-company",
       "name": "San Juan Island Brewing Company",
       "brewery_type": "brewpub",
       "street": "410 A St",
       "city": "Friday Harbor",
       "state": "Washington",
       "postal_code": 98250,
       "website_url": "http://www.sanjuanbrew.com",
       "phone": 3603782017,
       "created_at": "34:32.6",
       "updated_at": "39:02.7",
       "country": "United States",
       "longitude": -123.0150233,
       "latitude": 48.53276541
    },
    {
       "id": "bine-valley-brewing",
       "name": "Bine Valley Brewing",
       "brewery_type": "micro",
       "street": "2027 25th St SE",
       "city": "Salem",
       "state": "Oregon",
       "postal_code": "97302-1130",
       "website_url": "http://www.binebrews.com",
       "phone": 7602249889,
       "created_at": "34:04.9",
       "updated_at": "45:59.4",
       "country": "United States",
       "longitude": -123.0104248,
       "latitude": 44.92083964
    },
    {
       "id": "salem-ale-works",
       "name": "Salem Ale Works",
       "brewery_type": "micro",
       "street": "2315 25th St SE",
       "city": "Salem",
       "state": "Oregon",
       "postal_code": "97302-1145",
       "website_url": "http://www.aleinsalem.com",
       "phone": 5039908486,
       "created_at": "34:07.7",
       "updated_at": "04:40.1",
       "country": "United States",
       "longitude": -123.0103968,
       "latitude": 44.91998888
    },
    {
       "id": "dicks-brewing-co",
       "name": "Dicks Brewing Co",
       "brewery_type": "micro",
       "street": "3516 Galvin Rd",
       "city": "Centralia",
       "state": "Washington",
       "postal_code": "98531-9002",
       "website_url": "http://www.dicksbeer.com",
       "phone": 3607367760,
       "created_at": "34:29.1",
       "updated_at": "33:49.9",
       "country": "United States",
       "longitude": -122.9999693,
       "latitude": 46.73549248
    },
    {
       "id": "stumptown-brewery",
       "name": "Stumptown Brewery",
       "brewery_type": "brewpub",
       "street": "15045 River Rd",
       "city": "Guerneville",
       "state": "California",
       "postal_code": "95446-8043",
       "phone": 7078690705,
       "created_at": "33:01.6",
       "updated_at": "03:21.6",
       "country": "United States",
       "longitude": -122.9838017,
       "latitude": 38.51320677
    },
    {
       "id": "mcmenamins-olympic-club-brewery",
       "name": "McMenamins Olympic Club Brewery",
       "brewery_type": "brewpub",
       "street": "112 N Tower Ave",
       "city": "Centralia",
       "state": "Washington",
       "postal_code": "98531-4220",
       "website_url": "http://www.mcmenamins.com",
       "phone": 3607365164,
       "created_at": "34:31.1",
       "updated_at": "36:44.0",
       "country": "United States",
       "longitude": -122.9539398,
       "latitude": 46.7167828
    },
    {
       "id": "hoh-river-brewery",
       "name": "Hoh River Brewery",
       "brewery_type": "micro",
       "street": "2442 Mottman Rd SW",
       "city": "Tumwater",
       "state": "Washington",
       "postal_code": "98512-6219",
       "website_url": "http://www.hohriverbrewery.com",
       "phone": 3607054000,
       "created_at": "34:30.4",
       "updated_at": "35:44.0",
       "country": "United States",
       "longitude": -122.9356218,
       "latitude": 47.02543196
    },
    {
       "id": "ashtown-brewing-co",
       "name": "Ashtown Brewing Co",
       "brewery_type": "micro",
       "street": "1175 Hudson St",
       "city": "Longview",
       "state": "Washington",
       "postal_code": "98632-3158",
       "website_url": "http://www.ashtownbrewing.com",
       "phone": 3603535286,
       "created_at": "34:27.9",
       "updated_at": "32:17.8",
       "country": "United States",
       "longitude": -122.9327409,
       "latitude": 46.13661987
    },
    {
       "id": "five-dons-brewing-co",
       "name": "Five Dons Brewing Co",
       "brewery_type": "micro",
       "street": "1158 11th Ave",
       "city": "Longview",
       "state": "Washington",
       "postal_code": "98632-3110",
       "website_url": "http://www.fivedonsbeer.com",
       "phone": 3604306440,
       "created_at": "34:29.7",
       "updated_at": "34:43.4",
       "country": "United States",
       "longitude": -122.9326287,
       "latitude": 46.13418506
    },
    {
       "id": "wolves-and-people-farmhouse-brewery",
       "name": "Wolves & People Farmhouse Brewery",
       "brewery_type": "micro",
       "street": "30203 NE Benjamin Rd",
       "city": "Newberg",
       "state": "Oregon",
       "postal_code": "97132-6910",
       "website_url": "http://www.wolvesandpeople.com",
       "phone": 5034876873,
       "created_at": "34:08.5",
       "updated_at": "05:53.3",
       "country": "United States",
       "longitude": -122.9288409,
       "latitude": 45.31485946
    },
    {
       "id": "omeara-bros-brewing-company",
       "name": "O'Meara Bros. Brewing Company",
       "brewery_type": "brewpub",
       "street": "901 Bevins St",
       "city": "Lakeport",
       "state": "California",
       "postal_code": "95453-8778",
       "website_url": "http://www.omearabros.com",
       "phone": 7072621234,
       "created_at": "32:59.1",
       "updated_at": "00:32.8",
       "country": "United States",
       "longitude": -122.9245547,
       "latitude": 39.04005267
    },
    {
       "id": "island-hoppin-brewery",
       "name": "Island Hoppin' Brewery",
       "brewery_type": "micro",
       "street": "33 Hope Ln",
       "city": "Eastsound",
       "state": "Washington",
       "postal_code": "98245-8915",
       "website_url": "http://www.islandhoppinbrewery.com",
       "phone": 3603769253,
       "created_at": "34:30.6",
       "updated_at": "36:02.0",
       "country": "United States",
       "longitude": -122.9152526,
       "latitude": 48.70268053
    },
    {
       "id": "deep-space-brewing-/-out-of-this-world-pizza",
       "name": "Deep Space Brewing / Out of This World Pizza",
       "brewery_type": "brewpub",
       "street": "6255 NE Century Blvd",
       "city": "Hillsboro",
       "state": "Oregon",
       "postal_code": "97124-8621",
       "phone": 5036298700,
       "created_at": "34:05.7",
       "updated_at": "01:15.7",
       "country": "United States",
       "longitude": -122.912049,
       "latitude": 45.564963
    },
    {
       "id": "barsideous-brewing-co",
       "name": "Barsideous Brewing Co",
       "brewery_type": "brewpub",
       "street": "644 S Main St",
       "city": "Lebanon",
       "state": "Oregon",
       "postal_code": "97355-3337",
       "website_url": "http://www.barsideousbrewing.com",
       "phone": 5415701789,
       "created_at": "34:04.8",
       "updated_at": "45:54.7",
       "country": "United States",
       "longitude": -122.9070824,
       "latitude": 44.5247777
    },
    {
       "id": "conversion-brewing",
       "name": "Conversion Brewing",
       "brewery_type": "brewpub",
       "street": "833 S Main St",
       "city": "Lebanon",
       "state": "Oregon",
       "postal_code": "97355-3211",
       "website_url": "http://www.conversionbrewingcompany.com",
       "phone": 5412592337,
       "created_at": "34:05.5",
       "updated_at": "46:15.0",
       "country": "United States",
       "longitude": -122.9070824,
       "latitude": 44.5247777
    },
    {
       "id": "mcmenamins-spar-cafe-brewery",
       "name": "McMenamins Spar Cafe Brewery",
       "brewery_type": "brewpub",
       "street": "114 4th Ave E",
       "city": "Olympia",
       "state": "Washington",
       "postal_code": "98501-1103",
       "phone": 3603576444,
       "created_at": "34:31.2",
       "updated_at": "36:48.6",
       "country": "United States",
       "longitude": -122.9013768,
       "latitude": 47.04499974
    },
    {
       "id": "mcmenamins-cornelius-pass-roadhouse",
       "name": "McMenamins Cornelius Pass Roadhouse",
       "brewery_type": "brewpub",
       "street": "4045 NE Cornelius Pass Rd",
       "city": "Hillsboro",
       "state": "Oregon",
       "postal_code": "97124-9367",
       "website_url": "http://www.mcmenamins.com",
       "phone": 5036406174,
       "created_at": "34:06.7",
       "updated_at": "02:57.6",
       "country": "United States",
       "longitude": -122.9009845,
       "latitude": 45.5490862
    },
    {
       "id": "cascadia-brewing-co",
       "name": "Cascadia Brewing Co.",
       "brewery_type": "micro",
       "street": "211 4th Ave E",
       "city": "Olympia",
       "state": "Washington",
       "postal_code": "98501-1104",
       "website_url": "http://www.cascadiahomebrew.com",
       "phone": 3609432337,
       "created_at": "34:28.8",
       "updated_at": "33:23.5",
       "country": "United States",
       "longitude": -122.900174,
       "latitude": 47.04491273
    },
    {
       "id": "three-mugs-brewing-company",
       "name": "Three Mugs Brewing Company",
       "brewery_type": "micro",
       "street": "2020 NE Aloclek Dr Ste 108",
       "city": "Hillsboro",
       "state": "Oregon",
       "postal_code": "97124-8053",
       "website_url": "http://threemugsbrewing.com",
       "phone": 9713220232,
       "created_at": "34:08.1",
       "updated_at": "05:23.6",
       "country": "United States",
       "longitude": -122.8989638,
       "latitude": 45.53469242
    },
    {
       "id": "parkers-steakhouse-and-brewery",
       "name": "Parker's Steakhouse and Brewery",
       "brewery_type": "brewpub",
       "street": "1300 Mt Saint Helens Way NE",
       "city": "Castle Rock",
       "state": "Washington",
       "postal_code": "98611-9014",
       "website_url": "http://www.parkerssteakhouse.com",
       "phone": 3609672333,
       "created_at": "34:32.0",
       "updated_at": "37:56.3",
       "country": "United States",
       "longitude": -122.898886,
       "latitude": 46.287285
    },
    {
       "id": "well-80-brewing-company",
       "name": "Well 80 Brewing Company",
       "brewery_type": "brewpub",
       "street": "514 4th Ave E",
       "city": "Olympia",
       "state": "Washington",
       "postal_code": "98501-1111",
       "website_url": "http://www.well80.com",
       "phone": 3609156653,
       "created_at": "34:33.7",
       "updated_at": "40:45.9",
       "country": "United States",
       "longitude": -122.8964287,
       "latitude": 47.04534486
    },
    {
       "id": "opposition-brewing-company",
       "name": "Opposition Brewing Company",
       "brewery_type": "micro",
       "street": "545 Rossanley Dr Ste 106",
       "city": "Medford",
       "state": "Oregon",
       "postal_code": "97501-1771",
       "website_url": "http://www.oppositionbrewing.com",
       "phone": 5412108550,
       "created_at": "34:07.2",
       "updated_at": "03:52.8",
       "country": "United States",
       "longitude": -122.895928,
       "latitude": 42.34064429
    },
    {
       "id": "fish-brewing-co",
       "name": "Fish Brewing Co",
       "brewery_type": "micro",
       "street": "515 Jefferson St SE",
       "city": "Olympia",
       "state": "Washington",
       "postal_code": "98501-1467",
       "website_url": "http://www.fishbrewing.com",
       "phone": 3609436480,
       "created_at": "34:29.7",
       "updated_at": "34:41.9",
       "country": "United States",
       "longitude": -122.8954179,
       "latitude": 47.03437129
    },
    {
       "id": "paystreak-brewing",
       "name": "Paystreak Brewing",
       "brewery_type": "brewpub",
       "street": "449 Main Street",
       "city": "Etna",
       "state": "California",
       "postal_code": 96027,
       "website_url": "http://www.paystreakbrewing.com",
       "phone": 5304672337,
       "created_at": "32:59.4",
       "updated_at": "00:46.9",
       "country": "United States",
       "longitude": -122.8937015,
       "latitude": 41.4565805
    },
    {
       "id": "etna-brewing-co-llc",
       "name": "Etna Brewing Co LLC",
       "brewery_type": "micro",
       "street": "131 Callahan Street",
       "city": "Etna",
       "state": "California",
       "postal_code": 96027,
       "website_url": "http://www.etnabrew.com",
       "phone": 5304675277,
       "created_at": "32:55.2",
       "updated_at": "28:06.5",
       "country": "United States",
       "longitude": -122.8918305,
       "latitude": 41.45674141
    },
    {
       "id": "ram-restaurant-and-brewery-medford",
       "name": "RAM Restaurant and Brewery - Medford",
       "brewery_type": "brewpub",
       "street": "165 Rossanley Dr",
       "city": "Medford",
       "state": "Oregon",
       "postal_code": "97501-1777",
       "phone": 4582259816,
       "created_at": "34:07.4",
       "updated_at": "04:18.7",
       "country": "United States",
       "longitude": -122.8832971,
       "latitude": 42.343116
    },
    {
       "id": "table-rock-brewing-llc",
       "name": "Table Rock Brewing LLC",
       "brewery_type": "micro",
       "street": "825 Dakota Ave",
       "city": "Medford",
       "state": "Oregon",
       "postal_code": "97501-3443",
       "phone": 5419440829,
       "created_at": "34:08.0",
       "updated_at": "05:13.1",
       "country": "United States",
       "longitude": -122.8807679,
       "latitude": 42.31644563
    },
    {
       "id": "portal-brewing-co",
       "name": "Portal Brewing Co",
       "brewery_type": "brewpub",
       "street": "100 E 6th St",
       "city": "Medford",
       "state": "Oregon",
       "postal_code": "97501-5902",
       "website_url": "http://www.portalbrewingco.com",
       "phone": 5419410240,
       "created_at": "34:07.4",
       "updated_at": "04:09.7",
       "country": "United States",
       "longitude": -122.873661,
       "latitude": 42.326944
    },
    {
       "id": "common-block-brewing-company",
       "name": "Common Block Brewing Company",
       "brewery_type": "contract",
       "street": "315 E 5th Street",
       "city": "Medford",
       "state": "Oregon",
       "postal_code": 97501,
       "website_url": "http://www.commonblockbrewing.com",
       "phone": 5413262277,
       "created_at": "34:05.5",
       "updated_at": "46:14.1",
       "country": "United States",
       "longitude": -122.872489,
       "latitude": 42.32896155
    },
    {
       "id": "bricktowne-brewing-co",
       "name": "Bricktowne Brewing Co",
       "brewery_type": "brewpub",
       "street": "111 E 8th St",
       "city": "Medford",
       "state": "Oregon",
       "postal_code": "97501-7201",
       "website_url": "http://www.bricktownebeer.com",
       "phone": 5419732377,
       "created_at": "34:05.2",
       "updated_at": "46:04.7",
       "country": "United States",
       "longitude": -122.8721525,
       "latitude": 42.32544541
    },
    {
       "id": "bear-republic-brewing-co",
       "name": "Bear Republic Brewing Co",
       "brewery_type": "regional",
       "street": "345 Healdsburg Ave",
       "city": "Healdsburg",
       "state": "California",
       "postal_code": "95448-4105",
       "website_url": "http://www.bearrepublic.com",
       "phone": 7074332337,
       "created_at": "32:52.3",
       "updated_at": "25:09.0",
       "country": "United States",
       "longitude": -122.8713046,
       "latitude": 38.6110317
    },
    {
       "id": "osmos-alehouse",
       "name": "Osmo's Alehouse",
       "brewery_type": "micro",
       "street": "522 S Central Ave",
       "city": "Medford",
       "state": "Oregon",
       "postal_code": "97501-7246",
       "phone": 5418420557,
       "created_at": "34:07.3",
       "updated_at": "03:57.2",
       "country": "United States",
       "longitude": -122.8683277,
       "latitude": 42.32230438
    },
    {
       "id": "smockville-brewhouse",
       "name": "Smockville Brewhouse",
       "brewery_type": "brewpub",
       "street": "22793 SW Pine St",
       "city": "Sherwood",
       "state": "Oregon",
       "postal_code": "97140-9303",
       "website_url": "http://www.smockvillebrewhouse.com",
       "phone": 5036101506,
       "created_at": "34:07.9",
       "updated_at": "05:01.1",
       "country": "United States",
       "longitude": -122.8406694,
       "latitude": 45.3566248
    },
    {
       "id": "cooper-mountain-ale-works",
       "name": "Cooper Mountain Ale Works",
       "brewery_type": "micro",
       "street": "15855 SW Kestrel Ct",
       "city": "Beaverton",
       "state": "Oregon",
       "postal_code": "97007-9200",
       "website_url": "http://www.coopermountainaleworks.com",
       "phone": 5035807175,
       "created_at": "34:05.6",
       "updated_at": "46:15.4",
       "country": "United States",
       "longitude": -122.8400333,
       "latitude": 45.4314259
    },
    {
       "id": "kelsey-creek-brewing",
       "name": "Kelsey Creek Brewing",
       "brewery_type": "micro",
       "street": "3945 Main St",
       "city": "Kelseyville",
       "state": "California",
       "postal_code": "95451-7424",
       "website_url": "http://www.kelseycreekbrewing.com",
       "phone": 7072792311,
       "created_at": "32:57.3",
       "updated_at": "58:27.4",
       "country": "United States",
       "longitude": -122.8382903,
       "latitude": 38.97782568
    },
    {
       "id": "3-disciples-brewing",
       "name": "3 Disciples Brewing",
       "brewery_type": "micro",
       "city": "Sebastopol",
       "state": "California",
       "postal_code": "95472-5937",
       "website_url": "http://www.3disciplesbrewing.com/home",
       "phone": 7072287309,
       "created_at": "32:51.2",
       "updated_at": "23:48.0",
       "country": "United States",
       "longitude": -122.8332502,
       "latitude": 38.3845125
    },
    {
       "id": "california-cider-co",
       "name": "California Cider Co.",
       "brewery_type": "planning",
       "city": "Sebastopol",
       "state": "California",
       "postal_code": 95472,
       "website_url": "http://www.acecider.com",
       "phone": 7078291101,
       "created_at": "32:53.5",
       "updated_at": "26:23.3",
       "country": "United States",
       "longitude": -122.8332502,
       "latitude": 38.3845125
    },
    {
       "id": "two-kilts-brewing",
       "name": "Two Kilts Brewing",
       "brewery_type": "micro",
       "street": "14841 SW Tualatin Sherwood Rd Ste 501",
       "city": "Sherwood",
       "state": "Oregon",
       "postal_code": "97140-7127",
       "website_url": "http://www.twokiltsbrewing.com",
       "phone": 5036251700,
       "created_at": "34:08.1",
       "updated_at": "05:26.6",
       "country": "United States",
       "longitude": -122.8308802,
       "latitude": 45.36773305
    },
    {
       "id": "mcmenamins-murray-and-allen",
       "name": "McMenamins Murray & Allen",
       "brewery_type": "brewpub",
       "street": "6179 SW Murray Blvd",
       "city": "Beaverton",
       "state": "Oregon",
       "postal_code": "97008-4421",
       "website_url": "http://www.mcmenamins.com",
       "phone": 5035269618,
       "created_at": "34:06.8",
       "updated_at": "03:11.1",
       "country": "United States",
       "longitude": -122.8264537,
       "latitude": 45.4750792
    },
    {
       "id": "woodfour-brewing-company",
       "name": "Woodfour Brewing Company",
       "brewery_type": "brewpub",
       "street": "6780 Depot St Ste 160",
       "city": "Sebastopol",
       "state": "California",
       "postal_code": "95472-3462",
       "phone": 7078233144,
       "created_at": "33:03.0",
       "updated_at": "04:59.3",
       "country": "United States",
       "longitude": -122.8211041,
       "latitude": 38.4033133
    },
    {
       "id": "mcmenamins-cedar-hills",
       "name": "McMenamins - Cedar Hills",
       "brewery_type": "brewpub",
       "street": "2885 SW Cedar Hills Blvd",
       "city": "Beaverton",
       "state": "Oregon",
       "postal_code": "97005-1343",
       "phone": 5036410151,
       "created_at": "34:06.6",
       "updated_at": "02:53.2",
       "country": "United States",
       "longitude": -122.8058983,
       "latitude": 45.5013601
    },
    {
       "id": "discovery-bay-brewing",
       "name": "Discovery Bay Brewing",
       "brewery_type": "micro",
       "street": "948 N Park Avenue",
       "city": "Port Townsend",
       "state": "Washington",
       "postal_code": "98368-1512",
       "phone": 3603442999,
       "created_at": "34:29.2",
       "updated_at": "33:52.8",
       "country": "United States",
       "longitude": -122.8030594,
       "latitude": 48.1065812
    },
    {
       "id": "ancestry-brewery",
       "name": "Ancestry Brewery",
       "brewery_type": "brewpub",
       "street": "20585 SW 115th Ave",
       "city": "Tualatin",
       "state": "Oregon",
       "postal_code": "97062-6857",
       "website_url": "http://www.ancestrybrewing.com",
       "phone": 5037060448,
       "created_at": "34:04.6",
       "updated_at": "45:49.5",
       "country": "United States",
       "longitude": -122.7967838,
       "latitude": 45.3711546
    },
    {
       "id": "cascade-brewing-blending-house",
       "name": "Cascade Brewing Blending House",
       "brewery_type": "micro",
       "street": "6770 SW 111th Ave",
       "city": "Beaverton",
       "state": "Oregon",
       "postal_code": "97008-5336",
       "website_url": "http://www.cascadebrewing.com",
       "phone": 5033660730,
       "created_at": "34:05.4",
       "updated_at": "46:09.0",
       "country": "United States",
       "longitude": -122.7900557,
       "latitude": 45.4709556
    },
    {
       "id": "silver-falls-brewery",
       "name": "Silver Falls Brewery",
       "brewery_type": "micro",
       "street": "207 Jersey St",
       "city": "Silverton",
       "state": "Oregon",
       "postal_code": 97381,
       "website_url": "http://www.silverfallsbrewery.com",
       "phone": 5038733022,
       "created_at": "34:07.8",
       "updated_at": "04:52.0",
       "country": "United States",
       "longitude": -122.7821402,
       "latitude": 45.00421984
    },
    {
       "id": "propolis-brewing-llc",
       "name": "Propolis Brewing LLC",
       "brewery_type": "micro",
       "street": "2457 Jefferson St",
       "city": "Port Townsend",
       "state": "Washington",
       "postal_code": "98368-4634",
       "website_url": "http://www.propolisbrewing.com",
       "phone": 7652155850,
       "created_at": "34:32.1",
       "updated_at": "38:11.4",
       "country": "United States",
       "longitude": -122.7734441,
       "latitude": 48.10915193
    },
    {
       "id": "vanguard-brewing-company",
       "name": "Vanguard Brewing Company",
       "brewery_type": "micro",
       "street": "27501 SW 95th Ave Ste 945",
       "city": "Wilsonville",
       "state": "Oregon",
       "postal_code": "97070-5705",
       "website_url": "http://www.vanguardbrewing.com",
       "phone": 5039293774,
       "created_at": "34:08.2",
       "updated_at": "05:34.1",
       "country": "United States",
       "longitude": -122.7733742,
       "latitude": 45.3211582
    },
    {
       "id": "mcmenamins-old-church-brewery",
       "name": "McMenamins Old Church Brewery",
       "brewery_type": "brewpub",
       "street": "30340 SW Boones Ferry Rd",
       "city": "Wilsonville",
       "state": "Oregon",
       "postal_code": -97070,
       "website_url": "http://www.mcmenamins.com/Wilsonville",
       "phone": 5034272505,
       "created_at": "34:06.8",
       "updated_at": "03:14.1",
       "country": "United States",
       "longitude": -122.7726765,
       "latitude": 45.3007043
    },
    {
       "id": "g-man-brewery-/-g-man-sports-bar",
       "name": "G Man Brewery / G-Man Sports Bar",
       "brewery_type": "micro",
       "street": "18791 SW Martinazzi Ave",
       "city": "Tualatin",
       "state": "Oregon",
       "postal_code": "97062-6808",
       "website_url": "http://www.hotseatsportsbar.com",
       "phone": 5033105159,
       "created_at": "34:06.0",
       "updated_at": "01:48.6",
       "country": "United States",
       "longitude": -122.7598045,
       "latitude": 45.3841006
    },
    {
       "id": "stormbreaker-brewing-st-johns",
       "name": "StormBreaker Brewing St. Johns",
       "brewery_type": "brewpub",
       "street": "8409 N Lombard St",
       "city": "Portland",
       "state": "Oregon",
       "postal_code": 97203,
       "website_url": "http://www.stormbreakerbrewing.com",
       "phone": 9712551481,
       "created_at": "34:08.0",
       "updated_at": "05:10.2",
       "country": "United States",
       "longitude": -122.753038,
       "latitude": 45.58988575
    },
    {
       "id": "old-market-pub-and-brewery",
       "name": "Old Market Pub and Brewery",
       "brewery_type": "brewpub",
       "street": "6959 SW Multnomah Blvd",
       "city": "Portland",
       "state": "Oregon",
       "postal_code": "97223-3439",
       "website_url": "http://www.drinkbeerhere.com",
       "phone": 5032440450,
       "created_at": "34:07.2",
       "updated_at": "03:49.8",
       "country": "United States",
       "longitude": -122.7486715,
       "latitude": 45.46603555
    },
    {
       "id": "mcmenamins-john-barleycorns",
       "name": "McMenamins John Barleycorns",
       "brewery_type": "brewpub",
       "street": "14610 SW Sequoia Pkwy",
       "city": "Tigard",
       "state": "Oregon",
       "postal_code": "97224-7185",
       "website_url": "http://www.mcmenamins.com",
       "phone": 5036846253,
       "created_at": "34:06.8",
       "updated_at": "03:08.0",
       "country": "United States",
       "longitude": -122.7466466,
       "latitude": 45.41452585
    },
    {
       "id": "uptown-market-brewing",
       "name": "Uptown Market Brewing",
       "brewery_type": "micro",
       "street": "6620 SW Scholls Ferry Rd",
       "city": "Portland",
       "state": "Oregon",
       "postal_code": "97223-7166",
       "website_url": "http://www.uptownmarketpdx.com",
       "phone": 5033364783,
       "created_at": "34:08.2",
       "updated_at": "05:31.2",
       "country": "United States",
       "longitude": -122.7423002,
       "latitude": 45.4958797
    },
    {
       "id": "plow-brewing-company",
       "name": "Plow Brewing Company",
       "brewery_type": "micro",
       "street": "3334 Industrial Dr",
       "city": "Santa Rosa",
       "state": "California",
       "postal_code": "95403-2011",
       "website_url": "http://www.sonomacounty.com/brewery/plow-brewing-company",
       "phone": 7078434583,
       "created_at": "32:59.6",
       "updated_at": "01:03.7",
       "country": "United States",
       "longitude": -122.740072,
       "latitude": 38.47455222
    },
    {
       "id": "fogbelt-brewing-co",
       "name": "Fogbelt Brewing Co",
       "brewery_type": "brewpub",
       "street": "1305 Cleveland Ave",
       "city": "Santa Rosa",
       "state": "California",
       "postal_code": "95401-4211",
       "website_url": "http://www.fogbeltbrewing.com",
       "phone": 7079783400,
       "created_at": "32:55.6",
       "updated_at": "28:35.1",
       "country": "United States",
       "longitude": -122.7266079,
       "latitude": 38.4490004
    },
    {
       "id": "old-possum-brewing-company",
       "name": "Old Possum Brewing Company",
       "brewery_type": "brewpub",
       "street": "357 Sutton Pl",
       "city": "Santa Rosa",
       "state": "California",
       "postal_code": 95407,
       "website_url": "http://www.oldpossumbrewing.com",
       "phone": 7073037177,
       "created_at": "32:59.1",
       "updated_at": "00:30.2",
       "country": "United States",
       "longitude": -122.7252078,
       "latitude": 38.39097419
    },
    {
       "id": "henhouse-brewing",
       "name": "HenHouse Brewing",
       "brewery_type": "micro",
       "street": "322 Bellevue Ave # 2",
       "city": "Santa Rosa",
       "state": "California",
       "postal_code": "95407-7711",
       "website_url": "http://www.henhousebrewing.com",
       "created_at": "32:56.4",
       "updated_at": "29:17.6",
       "country": "United States",
       "longitude": -122.7241302,
       "latitude": 38.4017722
    },
    {
       "id": "seismic-brewing-co",
       "name": "Seismic Brewing Co",
       "brewery_type": "micro",
       "street": "2932 Dutton Ave",
       "city": "Santa Rosa",
       "state": "California",
       "postal_code": "95407-5711",
       "website_url": "http://www.seismicbrewingco.com/",
       "phone": 7075445996,
       "created_at": "33:00.7",
       "updated_at": "02:20.0",
       "country": "United States",
       "longitude": -122.7236203,
       "latitude": 38.4042275
    },
    {
       "id": "steele-and-hops-public-house",
       "name": "Steele and Hops Public House",
       "brewery_type": "brewpub",
       "street": "1901 Mendocino Ave",
       "city": "Santa Rosa",
       "state": "California",
       "postal_code": 95401,
       "website_url": "http://www.steeleandhops.com",
       "phone": 7075232201,
       "created_at": "33:01.4",
       "updated_at": "03:09.8",
       "country": "United States",
       "longitude": -122.717258,
       "latitude": 38.459216
    },
    {
       "id": "2-tread-brewing-co",
       "name": "2 Tread Brewing Co",
       "brewery_type": "brewpub",
       "street": "1018 Santa Rosa Plz",
       "city": "Santa Rosa",
       "state": "California",
       "postal_code": "95401-6399",
       "website_url": "http://www.2treadbrewing.com",
       "phone": 4152330857,
       "created_at": "32:51.1",
       "updated_at": "23:44.7",
       "country": "United States",
       "longitude": -122.7167729,
       "latitude": 38.4387767
    },
    {
       "id": "shady-oak-barrel-house",
       "name": "Shady Oak Barrel House",
       "brewery_type": "micro",
       "street": "420 1st St",
       "city": "Santa Rosa",
       "state": "California",
       "postal_code": "95401-6339",
       "website_url": "http://shadyoakbarrelhouse.com",
       "phone": 7075958958,
       "created_at": "33:00.8",
       "updated_at": "02:24.0",
       "country": "United States",
       "longitude": -122.7154726,
       "latitude": 38.43709396
    },
    {
       "id": "standing-stone-brewing-co",
       "name": "Standing Stone Brewing Co",
       "brewery_type": "micro",
       "street": "101 Oak St",
       "city": "Ashland",
       "state": "Oregon",
       "postal_code": "97520-1802",
       "website_url": "http://www.standingstonebrewing.com",
       "phone": 5414822448,
       "created_at": "34:07.9",
       "updated_at": "05:04.0",
       "country": "United States",
       "longitude": -122.7145793,
       "latitude": 42.1976451
    },
    {
       "id": "third-street-aleworks",
       "name": "Third Street Aleworks",
       "brewery_type": "brewpub",
       "street": "610 3rd St",
       "city": "Santa Rosa",
       "state": "California",
       "postal_code": "95404-4418",
       "website_url": "http://www.thirdstreetaleworks.com",
       "phone": 7075233060,
       "created_at": "33:02.2",
       "updated_at": "03:59.0",
       "country": "United States",
       "longitude": -122.7132175,
       "latitude": 38.43982595
    },
    {
       "id": "portland-brewing/north-american-breweries",
       "name": "Portland Brewing/North American Breweries",
       "brewery_type": "regional",
       "street": "2730 NW 31st Ave",
       "city": "Portland",
       "state": "Oregon",
       "postal_code": "97210-1718",
       "website_url": "http://www.portlandbrewing.com",
       "phone": 5032267623,
       "created_at": "34:07.4",
       "updated_at": "04:11.3",
       "country": "United States",
       "longitude": -122.713089,
       "latitude": 45.54176525
    },
    {
       "id": "sasquatch-brewery",
       "name": "Sasquatch Brewery",
       "brewery_type": "micro",
       "street": "2531 NW 30th Ave",
       "city": "Portland",
       "state": "Oregon",
       "postal_code": "97210-2015",
       "website_url": "http://www.sasquatchbrewery.com",
       "phone": 5038415687,
       "created_at": "34:07.7",
       "updated_at": "04:44.6",
       "country": "United States",
       "longitude": -122.7125709,
       "latitude": 45.54008922
    },
    {
       "id": "russian-river-brewing-co",
       "name": "Russian River Brewing Co",
       "brewery_type": "regional",
       "street": "725 4th St",
       "city": "Santa Rosa",
       "state": "California",
       "postal_code": "95404-4407",
       "website_url": "http://www.russianriverbrewing.com",
       "phone": 7075452337,
       "created_at": "33:00.3",
       "updated_at": "01:51.3",
       "country": "United States",
       "longitude": -122.7116607,
       "latitude": 38.4418139
    },
    {
       "id": "mcmenamins-oak-hills-brewery",
       "name": "McMenamins Oak Hills Brewery",
       "brewery_type": "micro",
       "street": "14740 NW Cornell Rd Ste 80",
       "city": "Portland",
       "state": "Oregon",
       "postal_code": "97229-5400",
       "website_url": "http://www.mcmenamins.com",
       "phone": 5036450117,
       "created_at": "34:06.8",
       "updated_at": "03:12.6",
       "country": "United States",
       "longitude": -122.7105079,
       "latitude": 45.5330425
    },
    {
       "id": "bear-republic-brewing-co-pub-and-restaurant-lakeside",
       "name": "Bear Republic Brewing Co Pub & Restaurant - Lakeside",
       "brewery_type": "brewpub",
       "street": "5000 Roberts Lake Rd",
       "city": "Rohnert Park",
       "state": "California",
       "postal_code": 94928,
       "website_url": "http://bearrepublic.com",
       "phone": 7075852722,
       "created_at": "32:52.3",
       "updated_at": "25:11.3",
       "country": "United States",
       "longitude": -122.7101405,
       "latitude": 38.3649703
    },
    {
       "id": "russian-river-brewing-co-production",
       "name": "Russian River Brewing Co - Production",
       "brewery_type": "micro",
       "street": "1812 Ferdinand Ct",
       "city": "Santa Rosa",
       "state": "California",
       "postal_code": "95404-5968",
       "website_url": "http://www.russianriverbrewing.com",
       "created_at": "33:00.3",
       "updated_at": "01:52.3",
       "country": "United States",
       "longitude": -122.7094385,
       "latitude": 38.4216577
    },
    {
       "id": "great-notion-brewing-nw",
       "name": "Great Notion Brewing NW",
       "brewery_type": "micro",
       "street": "2444 NW 28th Ave",
       "city": "Portland",
       "state": "Oregon",
       "postal_code": 97210,
       "phone": 5035484491,
       "created_at": "34:06.2",
       "updated_at": "02:02.3",
       "country": "United States",
       "longitude": -122.7089599,
       "latitude": 45.54001975
    },
    {
       "id": "moonshrimp-brewing",
       "name": "Moonshrimp Brewing",
       "brewery_type": "micro",
       "street": "8428 SW 22nd Ave",
       "city": "Portland",
       "state": "Oregon",
       "postal_code": "97219-2856",
       "website_url": "http://www.moonshrimpbrewing.com",
       "phone": 5039702234,
       "created_at": "34:07.0",
       "updated_at": "03:33.5",
       "country": "United States",
       "longitude": -122.7000809,
       "latitude": 45.4637206
    },
    {
       "id": "cascade-brewing",
       "name": "Cascade Brewing",
       "brewery_type": "brewpub",
       "street": "7424 SW Beaverton Hillsdale Hwy",
       "city": "Portland",
       "state": "Oregon",
       "postal_code": "97225-2149",
       "website_url": "http://www.cascadebrewing.com",
       "phone": 5032960110,
       "created_at": "34:05.3",
       "updated_at": "46:08.1",
       "country": "United States",
       "longitude": -122.699417,
       "latitude": 45.478513
    },
    {
       "id": "atwood-ales",
       "name": "Atwood Ales",
       "brewery_type": "micro",
       "street": "4012 Sweet Rd",
       "city": "Blaine",
       "state": "Washington",
       "postal_code": "98230-9108",
       "website_url": "http://www.atwoodales.com",
       "phone": 3603996239,
       "created_at": "34:27.9",
       "updated_at": "32:23.8",
       "country": "United States",
       "longitude": -122.6990459,
       "latitude": 48.97900614
    },
    {
       "id": "sasquatch-pub",
       "name": "Sasquatch Pub",
       "brewery_type": "brewpub",
       "street": "6440 SW Capitol Hwy.",
       "city": "Portland",
       "state": "Oregon",
       "postal_code": 97239,
       "phone": 5038415687,
       "created_at": "34:07.7",
       "updated_at": "04:46.1",
       "country": "United States",
       "longitude": -122.6988132,
       "latitude": 45.4776303
    },
    {
       "id": "breakside-brewery-slabtown",
       "name": "Breakside Brewery Slabtown",
       "brewery_type": "brewpub",
       "street": "1570 NW 22nd Ave",
       "city": "Portland",
       "state": "Oregon",
       "postal_code": "97210-2369",
       "website_url": "http://breakside.com",
       "phone": 5034447597,
       "created_at": "34:05.0",
       "updated_at": "46:03.3",
       "country": "United States",
       "longitude": -122.6966131,
       "latitude": 45.53384986
    },
    {
       "id": "kells-brew-pub",
       "name": "Kells Brew Pub",
       "brewery_type": "brewpub",
       "street": "210 NW 21st Ave",
       "city": "Portland",
       "state": "Oregon",
       "postal_code": "97209-1004",
       "website_url": "http://Kellsbrewpub.com",
       "phone": 5037197175,
       "created_at": "34:06.3",
       "updated_at": "02:22.4",
       "country": "United States",
       "longitude": -122.6941546,
       "latitude": 45.52447285
    },
    {
       "id": "mcmenamins-hillsdale-brewery-and-public-house",
       "name": "McMenamins Hillsdale Brewery and Public House",
       "brewery_type": "micro",
       "street": "1505 SW Sunset Blvd",
       "city": "Portland",
       "state": "Oregon",
       "postal_code": "97239-2625",
       "website_url": "http://www.mcmenamins.com",
       "phone": 5032931753,
       "created_at": "34:06.8",
       "updated_at": "03:06.5",
       "country": "United States",
       "longitude": -122.6936922,
       "latitude": 45.4792439
    },
    {
       "id": "lucky-labrador-beer-hall",
       "name": "Lucky Labrador Beer Hall",
       "brewery_type": "brewpub",
       "street": "1945 NW Quimby St",
       "city": "Portland",
       "state": "Oregon",
       "postal_code": "97209-1712",
       "website_url": "http://www.luckylab.com",
       "phone": 5035174352,
       "created_at": "34:06.5",
       "updated_at": "02:41.9",
       "country": "United States",
       "longitude": -122.6917362,
       "latitude": 45.53370375
    },
    {
       "id": "yeti-restaurant",
       "name": "Yeti Restaurant",
       "brewery_type": "brewpub",
       "street": "190 Farmers Ln",
       "city": "Santa Rosa",
       "state": "California",
       "postal_code": "95405-4703",
       "website_url": "http://www.yetirestaurant.com",
       "phone": 7075219608,
       "created_at": "33:03.1",
       "updated_at": "05:06.4",
       "country": "United States",
       "longitude": -122.688361,
       "latitude": 38.44971636
    },
    {
       "id": "back-pedal-brewing-company",
       "name": "Back Pedal Brewing Company",
       "brewery_type": "micro",
       "street": "1425 NW Flanders St",
       "city": "Portland",
       "state": "Oregon",
       "postal_code": "97209-2620",
       "website_url": "http://backpedalbrewing.com",
       "phone": 9714005950,
       "created_at": "34:04.7",
       "updated_at": "45:51.4",
       "country": "United States",
       "longitude": -122.6856562,
       "latitude": 45.52597595
    },
    {
       "id": "10-barrel-brewing-co",
       "name": "10 Barrel Brewing Co",
       "brewery_type": "large",
       "street": "1411 NW Flanders St",
       "city": "Portland",
       "state": "Oregon",
       "postal_code": "97209-2620",
       "website_url": "http://www.10barrel.com",
       "phone": 5032241700,
       "created_at": "34:04.4",
       "updated_at": "45:43.3",
       "country": "United States",
       "longitude": -122.6855056,
       "latitude": 45.5259786
    },
    {
       "id": "mcmenamins-crystal-ballroom-brewery",
       "name": "McMenamins Crystal Ballroom Brewery",
       "brewery_type": "brewpub",
       "street": "1332 W Burnside St",
       "city": "Portland",
       "state": "Oregon",
       "postal_code": "97209-2612",
       "website_url": "http://www.mcmenamins.com",
       "phone": 5037785625,
       "created_at": "34:06.7",
       "updated_at": "02:59.1",
       "country": "United States",
       "longitude": -122.6850673,
       "latitude": 45.5228146
    },
    {
       "id": "bridgeport-brewing-co",
       "name": "BridgePort Brewing Co",
       "brewery_type": "regional",
       "street": "1318 NW Northrup St",
       "city": "Portland",
       "state": "Oregon",
       "postal_code": "97209-2808",
       "website_url": "http://www.bridgeportbrew.com",
       "phone": 5032417179,
       "created_at": "34:05.3",
       "updated_at": "46:05.7",
       "country": "United States",
       "longitude": -122.6848601,
       "latitude": 45.53133335
    },